{
    "type": "FeatureCollection",
    "crs": {
        "type": "name",
        "properties": {"name": "urn:ogc:def:crs:OGC:1.3:CRS84"}
    },
    "features": [
        {
            "type": "Feature",
            "properties": {
                "township": "桃園區",
                "AQI": 112,
                "sitename": "桃園"
            },
            "geometry": {
                "type": "Point",
                "coordinates": [121.311111,24.988889]
            }
        },
        {
            "type": "Feature",
            "properties": {
                "township": "中壢區",
                "AQI": 116,
                "sitename": "中壢"
            },
            "geometry": {
                "type": "Point",
                "coordinates": [121.2236,24.9569]
            }
        },
        {
            "type": "Feature",
            "properties": {
                "township": "平鎮區",
                "AQI": 114,
                "sitename": "平鎮"
            },
            "geometry": {
                "type": "Point",
                "coordinates": [121.2161,24.9439]
            }
        },
        {
            "type": "Feature",
            "properties": {
                "township": "八德區",
                "AQI": 112,
                "sitename": "桃園"   
            },
            "geometry": {
                "type": "Point",
                "coordinates": [121.298783,24.957619]
            }
        },
        {
            "type": "Feature",
            "properties": {
                "township": "楊梅區",
                "AQI": 119,
                "sitename": "湖口"
            },
            "geometry": {
                "type": "Point",
                "coordinates": [121.2,24.9]
            }
        },
        {
            "type": "Feature",
            "properties": {
                "township": "蘆竹區",
                "AQI": 86,
                "sitename": "林口"
            },
            "geometry": {
                "type": "Point",
                "coordinates": [121.28,25.03]
            }
        },
        {
            "type": "Feature",
            "properties": {
                "township": "大溪區",
                "AQI": 121,
                "sitename": "龍潭"
            },
            "geometry": {
                "type": "Point",
                "coordinates": [121.2871,24.8806]
            }
        },
        {
            "type": "Feature",
            "properties": {
                "township": "龜山區",
                "AQI": 112,
                "sitename": "桃園"
            },
            "geometry": {
                "type": "Point",
                "coordinates": [121.338094,24.995006]
            }
        },
        {
            "type": "Feature",
            "properties": {
                "township": "大園區",
                "AQI": 97,
                "sitename": "大園"
            },
            "geometry": {
                "type": "Point",
                "coordinates": [121.18,25.05]
            }
        },
        {
            "type": "Feature",
            "properties": {
                "township": "觀音區",
                "AQI": 100,
                "sitename": "觀音"
            },
            "geometry": {
                "type": "Point",
                "coordinates": [121.1,25.03]
            }
        },
        {
            "type": "Feature",
            "properties": {
                "township": "新屋區",
                "AQI": 100,
                "sitename": "觀音"
            },
            "geometry": {
                "type": "Point",
                "coordinates": [121.1,25.0]
            }
        },
        {
            "type": "Feature",
            "properties": {
                "township": "龍潭區",
                "AQI": 121,
                "sitename": "龍潭"
            },
            "geometry": {
                "type": "Point",
                "coordinates": [121.2053,24.8444]
            }
        },
        {
            "type": "Feature",
            "properties": {
                "township": "復興區",
                "AQI": 121,
                "sitename": "龍潭"
            },
            "geometry": {
                "type": "Point",
                "coordinates": [121.355,24.715]
            }
        }
    ]
}